City_ID,City,Lat,Lng,Max Temp,Humidity,Cloudiness,Wind Speed,Country,Date
0,Edinburgh Of The Seven Seas,-37.0676,-12.3116,15.72,90,13,8.25,SH,1701692749
1,Hamilton,39.1834,-84.5333,2.47,93,75,2.57,US,1701692744
2,Adamstown,-25.066,-130.1015,22.29,81,29,5.12,PN,1701692750
3,Punta Arenas,-53.15,-70.9167,11.06,66,75,9.26,CL,1701692751
4,Sao Joao Da Barra,-21.6403,-41.0511,31.05,80,97,6.4,BR,1701692752
5,Mount Pearl,47.5166,-52.7813,1.19,86,100,3.6,CA,1701692752
6,Iqaluit,63.7506,-68.5145,-9.15,79,100,6.69,CA,1701692753
7,Kharkhorin,47.1975,102.8238,0.45,55,83,7.81,MN,1701692754
8,Gurupi,-11.7292,-49.0686,25.09,72,100,1.52,BR,1701692755
9,Isfana,39.8386,69.5306,6.31,44,45,1.51,KG,1701692755
10,Ouarzazat,30.9189,-6.8934,17.16,31,0,0.51,MA,1701692756
11,Quellon,-43.1167,-73.6167,10.49,82,44,4.32,CL,1701692757
12,Ancud,-41.8697,-73.8203,10.13,73,10,2.05,CL,1701692758
13,Fort Bragg,35.139,-79.006,11.75,94,0,0.0,US,1701692758
14,Invercargill,-46.4,168.35,5.17,83,14,1.15,NZ,1701692637
15,Port Elizabeth,-33.918,25.5701,23.16,57,20,8.23,ZA,1701692760
16,Vila Velha,-20.3297,-40.2925,30.97,71,40,6.69,BR,1701692761
17,West Island,-12.1568,96.8225,26.99,74,85,4.63,CC,1701692762
18,Twon-Brass,4.3151,6.2418,28.53,75,60,3.14,NG,1701692762
19,Newman,37.3138,-121.0208,10.16,89,100,0.51,US,1701692763
20,Arkhara,49.4212,130.0842,-20.73,100,67,1.07,RU,1701692764
21,Levuka,50.1834,-105.4011,-2.15,100,100,2.57,CA,1701692765
22,Bilibino,68.0546,166.4372,-24.52,99,100,1.16,RU,1701692766
23,Grootfontein,-19.5667,18.1167,33.0,21,54,6.13,NA,1701692767
24,Brisas De Zicatela,15.8369,-97.0419,22.29,83,0,3.09,MX,1701692768
25,Najaf,31.9985,44.3398,23.39,25,4,3.08,IQ,1701692769
26,Barra De Santo Antonio,-9.4047,-35.5072,27.6,70,64,5.07,BR,1701692770
27,Grytviken,-54.2811,-36.5092,2.53,68,58,3.94,GS,1701692771
28,Puerto Natales,-51.7236,-72.4875,13.25,54,75,7.72,CL,1701692772
29,Yigo Village,13.5361,144.8886,27.62,80,0,4.12,GU,1701692774
30,Eyl,7.9803,49.8164,29.1,50,66,11.7,SO,1701692775
31,Warmbad,-28.45,18.7333,31.52,9,0,4.42,NA,1701692530
32,Toliara,-23.35,43.6667,29.15,49,0,5.8,MG,1701692777
33,Clodomira,-27.5744,-64.1311,12.56,90,100,5.03,AR,1701692777
34,Waitangi,-43.9535,-176.5597,10.46,70,94,1.34,NZ,1701692779
35,Flying Fish Cove,-10.4217,105.6791,25.82,83,75,2.57,CX,1701692780
36,St. John'S,47.5649,-52.7093,1.65,85,100,3.6,CA,1701692537
37,Bethel,41.3712,-73.414,6.32,92,0,2.57,US,1701692685
38,Petropavlovsk-Kamchatsky,53.0452,158.6483,-7.53,76,75,3.58,RU,1701692623
39,Hermanus,-34.4187,19.2345,20.18,55,48,5.34,ZA,1701692783
40,Ugoofaaru,5.6667,73.0,28.9,75,9,5.21,MV,1701692784
41,Howrah,22.5892,88.3103,26.0,69,75,0.0,IN,1701692785
42,Ialibu,-6.2821,143.9935,14.26,98,100,1.04,PG,1701692787
43,Cova Figueira,14.8905,-24.2934,23.17,75,53,8.34,CV,1701692788
44,Luanda,-8.8368,13.2343,30.0,70,20,4.12,AO,1701692570
45,Hawaiian Paradise Park,19.5933,-154.9731,21.73,97,100,1.54,US,1701692621
46,Shingu,33.7333,135.9833,7.23,68,35,2.27,JP,1701692791
47,Pisco,-13.7,-76.2167,19.03,88,75,3.09,PE,1701692680
48,Odesskoye,54.2111,72.9651,-14.57,87,100,1.73,RU,1701692793
49,Bredasdorp,-34.5322,20.0403,23.94,35,44,8.01,ZA,1701692794
50,Port-Aux-Francais,-49.35,70.2167,4.09,71,16,14.0,TF,1701692795
51,Ceeldheer,3.8488,47.1806,31.03,42,57,8.17,SO,1701692796
52,Tafuna,-14.3358,-170.72,27.77,77,15,9.41,AS,1701692797
53,Ust-Nera,64.5667,143.2,-41.2,98,100,2.08,RU,1701692797
54,Yeppoon,-23.1333,150.7333,25.88,91,18,2.72,AU,1701692798
55,Namtsy,62.7161,129.6658,-45.65,100,96,1.12,RU,1701692800
56,San Antonio De Pale,-1.4014,5.6325,27.02,79,80,3.91,GQ,1701692801
57,Papatowai,-46.5619,169.4708,5.93,78,8,1.32,NZ,1701692802
58,Portland,45.5234,-122.6762,14.5,94,100,4.02,US,1701692192
59,Isafjordur,66.0755,-23.124,-2.98,80,0,1.54,IS,1701692803
60,Touros,-5.1989,-35.4608,29.21,64,69,5.18,BR,1701692804
61,Kenai,60.5544,-151.2583,-2.7,79,100,4.63,US,1701692805
62,Tiksi,71.6872,128.8694,-32.31,98,95,2.89,RU,1701692805
63,Wailua Homesteads,22.0669,-159.378,21.53,89,75,1.54,US,1701692806
64,Jamestown,42.097,-79.2353,3.34,96,100,5.14,US,1701692787
65,Yellowknife,62.456,-114.3525,-14.71,85,100,5.66,CA,1701692808
66,Baoqing,46.3317,132.2111,-9.46,90,43,3.23,CN,1701692809
67,Namie,37.4833,141.0,5.55,73,5,2.12,JP,1701692810
68,Zheleznogorsk-Ilimskiy,56.5768,104.1217,-3.68,84,100,5.81,RU,1701692811
69,Mildura,-34.2,142.15,26.71,35,15,1.07,AU,1701692812
70,Blackmans Bay,-43.0167,147.3167,17.07,78,83,0.45,AU,1701692812
71,Codrington,-38.2667,141.9667,13.77,92,57,2.04,AU,1701692813
72,Santa Terezinha,-29.9002,-50.0904,19.76,92,100,6.77,BR,1701692814
73,Labytnangi,66.6572,66.4183,-33.84,99,43,1.69,RU,1701692815
74,Wewak,-3.5534,143.6268,26.35,88,94,1.64,PG,1701692815
75,Awjilah,29.1081,21.2869,23.77,47,31,6.3,LY,1701692816
76,Baukau,51.5526,7.2042,3.6,65,100,2.68,DE,1701692817
77,Chibougamau,49.9168,-74.3659,-12.21,79,100,5.66,CA,1701692658
78,Magadan,59.5667,150.8,-25.45,96,43,3.43,RU,1701692818
79,Saint-Philippe,-21.3585,55.7679,26.77,73,33,3.17,RE,1701692819
80,Mount Isa,-20.7333,139.5,26.87,41,0,1.54,AU,1701692820
81,Axim,4.8699,-2.2405,30.29,66,23,3.43,GH,1701692821
82,Avarua,-21.2078,-159.775,24.03,83,75,1.54,CK,1701692822
83,Dudinka,69.4058,86.1778,-32.99,96,16,2.68,RU,1701692824
84,Altai,46.3722,96.2583,-6.84,69,78,7.7,MN,1701692825
85,Akjoujt,19.6969,-14.4164,31.13,18,57,3.46,MR,1701692826
86,Le Port,-20.9373,55.2919,27.0,86,17,3.52,RE,1701692827
87,Tolanaro,-25.0319,46.9987,28.04,57,40,10.29,MG,1701692828
88,Enewetak,11.3474,162.3373,27.87,71,99,9.38,MH,1701692829
89,Margaret River,-33.95,115.0667,16.38,71,100,4.12,AU,1701692553
90,Lincoln,40.8,-96.667,-2.68,92,26,2.65,US,1701692712
91,Klyuchi,52.2667,79.1667,-8.56,75,100,3.93,RU,1701692833
92,Weno,7.4515,151.8468,27.97,83,40,1.54,FM,1701692834
93,Oranjemund,-28.55,16.4333,20.71,59,0,9.5,NA,1701692835
94,Lazaro Cardenas,17.9583,-102.2,24.21,83,99,1.64,MX,1701692836
95,Karwar,14.8,74.1333,28.22,68,84,4.04,IN,1701692837
96,Iskateley,67.6803,53.1512,-18.88,95,99,4.47,RU,1701692838
97,Tofol,5.3248,163.0078,26.63,88,100,8.26,FM,1701692839
98,New Norfolk,-42.7826,147.0587,17.72,75,76,1.14,AU,1701692840
99,Massawa,15.6097,39.45,32.41,39,6,3.18,ER,1701692841
100,Sinabang,2.4803,96.3801,27.14,80,86,3.27,ID,1701692842
101,Ola,59.5833,151.2833,-26.26,94,49,3.66,RU,1701692843
102,Murun-Kuren,49.6342,100.1625,-5.38,64,77,8.24,MN,1701692843
103,Kolokani,13.5728,-8.0339,34.66,11,30,6.42,ML,1701692844
104,Richards Bay,-28.783,32.0377,30.98,52,81,5.64,ZA,1701692845
105,Lebu,-37.6167,-73.65,12.42,66,0,7.38,CL,1701692846
106,Qaqortoq,60.7167,-46.0333,-4.02,72,100,4.33,GL,1701692847
107,Ponta Delgada,37.7333,-25.6667,18.44,59,40,4.47,PT,1701692848
108,Anadyr,64.75,177.4833,-19.72,84,20,5.0,RU,1701692849
109,Ushuaia,-54.8,-68.3,11.79,54,0,2.06,AR,1701692850
110,Talnakh,69.4865,88.3972,-33.22,80,17,0.6,RU,1701692851
111,Mawlaik,23.6333,94.4167,22.7,77,100,0.6,MM,1701692852
112,Udachny,66.4167,112.4,-36.42,73,97,1.53,RU,1701692852
113,Saint-Joseph,-21.3667,55.6167,26.21,72,20,3.02,RE,1701692853
114,San Luis De La Loma,17.2706,-100.8939,24.45,74,95,1.89,MX,1701692854
115,Cabo San Lucas,22.8909,-109.9124,21.4,79,0,0.45,MX,1701692580
116,Lompoc,34.6391,-120.4579,14.88,85,0,4.02,US,1701692681
117,Sibi,29.5448,67.8764,24.98,16,0,2.35,PK,1701692857
118,Usogorsk,63.4106,48.6872,-16.42,99,100,1.29,RU,1701692858
119,Greymouth,-42.4667,171.2,10.75,90,4,2.12,NZ,1701692859
120,Georgetown,5.4112,100.3354,28.96,81,20,4.12,MY,1701692612
121,Stephenville,32.2207,-98.2023,6.54,65,0,0.0,US,1701692641
122,Atafu Village,-8.5421,-172.5159,29.2,75,34,6.89,TK,1701692861
123,Arraial Do Cabo,-22.9661,-42.0278,27.98,78,40,4.63,BR,1701692752
124,Nabire,-3.3667,135.4833,25.67,91,100,1.1,ID,1701692863
125,Celestun,20.8667,-90.4,23.02,95,48,2.81,MX,1701692864
126,Gualaceo,-2.9,-78.7833,17.81,92,89,1.16,EC,1701692865
127,Khorixas,-20.3667,14.9667,31.11,31,98,5.34,NA,1701692865
128,Bikenibeu Village,1.3673,173.1241,25.98,89,100,3.09,KI,1701692866
129,Vico Del Gargano,41.8983,15.9576,9.7,63,86,1.48,IT,1701692867
130,Tokar,18.4254,37.729,32.49,42,8,10.74,SD,1701692868
131,Polyarnyy,69.1989,33.4478,-6.7,94,100,3.68,RU,1701692869
132,Port Saint John'S,-31.6229,29.5448,24.18,72,92,4.29,ZA,1701692870
133,Boac,13.4463,121.84,26.72,86,41,3.5,PH,1701692870
134,Barlinek,52.9946,15.2186,0.04,85,76,3.76,PL,1701692871
135,Saipan,15.1355,145.701,27.39,83,20,8.23,MP,1701692872
136,Albany,42.6001,-73.9662,6.05,94,93,0.89,US,1701692873
137,Vorgashor,67.5833,63.95,-27.65,91,23,2.61,RU,1701692873
138,Ginir,7.1333,40.7,22.01,26,46,4.43,ET,1701692874
139,Akureyri,65.6835,-18.0878,-8.04,86,75,1.54,IS,1701692875
140,Mugia,43.1041,-9.2179,13.42,62,52,8.53,ES,1701692876
141,Constantia,44.1833,28.65,4.38,54,99,3.88,RO,1701692753
142,Pacific Grove,36.6177,-121.9166,12.32,87,0,0.89,US,1701692877
143,Ma'An,26.9775,110.7211,12.68,78,47,0.72,CN,1701692878
144,Zoucheng,35.4006,116.9656,8.42,36,3,1.55,CN,1701692879
145,Niksic,42.7731,18.9445,9.92,55,8,0.96,ME,1701692879
146,Badger,64.8,-147.5333,-18.13,71,40,0.0,US,1701692880
147,Leua,48.2156,18.6071,1.94,74,20,3.16,SK,1701692881
148,Visby,57.6409,18.296,-3.88,86,75,5.66,SE,1701692853
149,Amos,48.5669,-78.1162,-10.56,94,100,3.2,CA,1701692883
150,Selfoss,63.9331,-20.9971,-1.91,61,100,3.99,IS,1701692885
151,Stanley,54.868,-1.6985,4.87,96,75,7.2,GB,1701692886
152,Chyhyryn,49.0838,32.6555,0.59,63,75,4.14,UA,1701692887
153,Sitka,57.0531,-135.33,6.94,76,100,5.66,US,1701692888
154,Srivardhan,18.0333,73.0167,28.12,69,54,4.24,IN,1701692889
155,Thompson,55.7435,-97.8558,-6.91,93,100,1.03,CA,1701692725
156,Palmer,42.1584,-72.3287,4.23,80,94,1.57,US,1701692891
157,Kourou,5.1552,-52.6478,29.03,81,53,3.94,GF,1701692891
158,Port Lincoln,-34.7333,135.8667,17.86,77,76,5.65,AU,1701692893
159,Ifanadiana,-21.3,47.6333,28.43,44,73,2.59,MG,1701692893
160,Santiago De Cao,-7.9589,-79.2392,19.07,88,91,2.06,PE,1701692895
161,Afaahiti,-17.75,-149.2833,24.93,76,88,8.85,PF,1701692896
162,Castillos,-34.1667,-53.8333,17.3,48,10,4.93,UY,1701692897
163,Puerto Ayora,-0.7393,-90.3518,23.64,92,76,3.13,EC,1701692899
164,Ta`U,-14.2336,-169.5144,27.34,76,8,9.96,AS,1701692900
165,Micheweni,-4.9667,39.8333,29.26,66,61,3.97,TZ,1701692901
166,Cacabelos,42.6002,-6.7237,10.32,92,100,1.34,ES,1701692902
167,Hithadhoo,-0.6,73.0833,28.24,76,72,2.94,MV,1701692903
168,Saint-Pierre,-21.3393,55.4781,26.82,65,8,3.09,RE,1701692904
169,Pont Rouge,48.8833,-72.0825,-6.84,78,100,3.58,CA,1701692906
170,Luganville,-15.5333,167.1667,26.39,88,48,4.21,VU,1701692907
171,Conde,-7.2597,-34.9075,30.7,62,75,5.14,BR,1701692910
172,Kingston,17.997,-76.7936,25.53,83,20,2.06,JM,1701692798
173,Yuzhno-Kurilsk,44.0306,145.8556,4.1,68,63,5.34,RU,1701692913
174,Praia Da Vitoria,38.7333,-27.0667,16.53,72,75,2.38,PT,1701692660
175,Salgado,-11.0319,-37.475,29.39,54,50,3.62,BR,1701692917
176,Huarmey,-10.0681,-78.1522,19.72,86,56,3.48,PE,1701692920
177,Gadzhiyevo,69.2551,33.3362,-7.16,95,100,3.71,RU,1701692922
178,Port Hedland,-20.3167,118.5667,27.03,83,3,5.66,AU,1701692923
179,Bad Bevensen,53.0833,10.5833,0.89,72,100,3.63,DE,1701692932
180,Biograd Na Moru,43.9433,15.4519,10.39,34,79,0.5,HR,1701692933
181,Pauini,-7.7136,-66.9764,24.39,95,100,0.97,BR,1701692933
182,Kodiak,57.79,-152.4072,4.73,87,100,5.66,US,1701692934
183,Gongzhuling,43.5008,124.8198,-6.63,92,4,1.42,CN,1701692935
184,Vadso,70.0744,29.7487,-3.91,93,75,4.12,NO,1701692936
185,Muli,2.9167,73.5667,28.51,74,42,4.21,MV,1701692937
186,Kachug,53.9606,105.8817,-6.92,95,100,1.95,RU,1701692938
187,Vilyuchinsk,52.9306,158.4028,-6.71,87,56,2.62,RU,1701692940
188,Ji'An,27.1172,114.9793,11.87,76,81,1.83,CN,1701692941
189,Fortuna,40.5982,-124.1573,15.37,84,100,7.2,US,1701692942
190,Charters Towers,-20.1,146.2667,26.04,63,20,6.45,AU,1701692943
191,Kasongo-Lunda,-6.4667,16.8167,31.0,51,93,0.78,CD,1701692944
192,Bayanaul,50.7889,75.6956,-10.82,87,91,2.08,KZ,1701692945
193,Victorica,-36.2151,-65.4359,17.42,36,18,6.5,AR,1701692946
194,Sumbe,-11.2061,13.8437,29.39,61,97,4.93,AO,1701692947
195,Hastings,50.8552,0.5729,8.84,50,100,9.88,GB,1701692948
196,Shakawe,-18.3667,21.85,38.27,16,35,2.2,BW,1701692949
197,Uliastay,47.7417,96.8444,-7.39,66,100,6.1,MN,1701692950
198,Ribeira Grande,38.5167,-28.7,17.22,55,75,4.47,PT,1701692951
199,Isangel,-19.55,169.2667,25.44,87,98,2.78,VU,1701692952
200,Moree,-29.4667,149.85,25.63,30,0,2.8,AU,1701692722
201,Puerto Aysen,-45.4,-72.7,8.64,100,100,0.54,CL,1701692954
202,La Passe,45.5549,-0.8967,12.23,82,100,11.66,FR,1701692955
203,Taoudenni,22.6783,-3.9836,28.72,24,1,5.7,ML,1701692956
204,Huadian,42.9633,126.7478,-2.82,97,72,0.78,CN,1701692957
205,Tura,25.5198,90.2201,18.33,80,78,0.77,IN,1701692958
206,Margate,51.3813,1.3862,8.83,91,100,4.02,GB,1701692959
207,Caleta De Carquin,-11.0925,-77.6267,19.5,83,77,3.4,PE,1701692960
208,Tete,-16.1564,33.5867,37.05,20,0,1.54,MZ,1701692961
209,Rusape,-18.5278,32.1284,32.1,12,4,3.55,ZW,1701692962
210,Ilulissat,69.2167,-51.1,-6.99,79,75,0.0,GL,1701692962
211,Kangaba,11.9333,-8.4167,35.2,11,73,5.3,ML,1701692963
212,Akniste,56.1615,25.7478,-5.52,95,96,2.21,LV,1701692964
213,Namibe,-15.1961,12.1522,26.62,73,100,4.26,AO,1701692965
214,Utrik,11.2278,169.8474,27.72,69,79,8.96,MH,1701692966
215,Sodra Sandby,56.5667,16.6167,-2.84,84,97,3.47,SE,1701692967
216,Salmon Arm,50.6998,-119.3024,-1.38,100,95,0.51,CA,1701692714
217,Kargil,34.5667,76.1,-0.88,30,0,1.85,IN,1701692969
218,Al Ghayzah,16.2079,52.176,28.21,41,6,4.23,YE,1701692970
219,Ipameri,-17.7219,-48.1597,26.37,59,64,3.12,BR,1701692971
220,Oodweyne,9.4092,45.064,24.97,34,10,8.12,SO,1701692972
221,Kiama,-34.6833,150.8667,19.76,77,67,5.36,AU,1701692973
222,Prince Albert,53.2001,-105.7677,-17.03,78,20,1.03,CA,1701692973
223,Bilokurakyne,49.5341,38.7307,-0.17,57,99,5.41,UA,1701692974
224,Bhanpura,24.513,75.7469,20.82,75,74,5.29,IN,1701692975
225,Kayangel,8.0823,134.7173,28.66,78,100,8.54,PW,1701692976
226,Hyesan,41.4017,128.1778,-6.52,93,31,0.56,KP,1701692977
227,Choibalsan,48.0667,114.5,-6.11,67,97,9.01,MN,1701692978
228,Kailua-Kona,19.6406,-155.9956,24.22,86,0,2.57,US,1701692978
229,Whitehorse,60.7161,-135.0538,-9.57,85,75,5.14,CA,1701692979
230,Kiunga,-6.1219,141.2906,24.19,97,99,0.9,PG,1701692980
231,Broome,42.2506,-75.833,6.05,86,100,3.6,US,1701692981
232,Lupane,-18.9315,27.807,41.02,9,57,0.7,ZW,1701692982
233,Ar Ruways,24.1103,52.7306,25.61,57,23,4.09,AE,1701692983
234,Daru,-9.0763,143.2092,26.93,85,89,4.42,PG,1701692983
235,Coyhaique,-45.5752,-72.0662,11.34,66,40,4.63,CL,1701692984
236,Kirensk,57.7853,108.1119,-2.24,96,100,4.47,RU,1701692985
237,Jijel,36.8205,5.7667,16.97,36,75,1.54,DZ,1701692737
238,Lugoba,-6.45,38.3333,27.76,77,100,3.27,TZ,1701692986
239,Moussoro,13.6408,16.4901,35.19,8,75,5.54,TD,1701692987
240,Likiep,9.8251,169.3107,27.62,77,90,9.33,MH,1701692988
241,Barcelos,41.5388,-8.6151,15.08,81,27,5.01,PT,1701692989
242,Jayapura,-2.5333,140.7,25.66,85,96,0.98,ID,1701692989
243,Lihue,21.9789,-159.3672,21.87,85,75,1.54,US,1701692990
244,Nicoya,10.1483,-85.452,21.9,91,78,0.54,CR,1701692991
245,Kiruna,67.8557,20.2251,-12.49,85,0,1.54,SE,1701692992
246,Lensk,60.7253,114.9278,-28.4,94,100,4.14,RU,1701692992
247,Padang,-0.9492,100.3543,27.03,87,98,0.68,ID,1701692863
248,Kone,-21.0595,164.8658,25.03,79,99,1.33,NC,1701692994
249,Geraldton,-28.7667,114.6,22.23,78,29,8.75,AU,1701692995
250,Mont-Laurier,46.5501,-75.4993,-3.21,96,100,2.88,CA,1701692887
251,La'Ie,21.6477,-157.9253,23.95,81,0,1.79,US,1701692996
252,Guayaramerin,-10.8368,-65.3614,27.03,89,96,3.09,BO,1701692997
253,Longyearbyen,78.2186,15.6401,-6.09,68,40,8.23,SJ,1701692998
254,Kodinsk,58.6881,99.1844,-15.03,95,100,3.79,RU,1701692998
255,Ishqoshim,36.7248,71.6133,-0.98,46,0,1.7,TJ,1701692999
256,Rongelap,11.1635,166.8941,27.67,75,86,8.86,MH,1701693000
257,Chonchi,-42.6128,-73.8092,10.56,66,26,2.84,CL,1701693001
258,Erdenet,49.0333,104.0833,-0.78,57,56,11.15,MN,1701693004
259,Chui,-33.6971,-53.4616,18.32,50,0,5.85,UY,1701693007
260,Kruisfontein,-34.0033,24.7314,21.05,50,42,9.23,ZA,1701693010
261,Yaren,-0.5472,166.916,27.49,81,100,6.6,NR,1701693012
262,Yamada,39.4667,141.95,4.25,77,10,2.39,JP,1701693014
263,Nadym,65.5333,72.5167,-30.99,100,100,2.98,RU,1701693015
264,Bubaque,11.2833,-15.8333,27.76,64,9,0.71,GW,1701693016
265,Frontino,6.7801,-76.1288,19.87,85,34,0.78,CO,1701693017
266,Paphos,34.7667,32.4167,23.46,64,0,4.12,CY,1701692909
267,Aykhal,66.0,111.5,-35.58,100,100,2.68,RU,1701693019
268,Egilsstadir,65.2653,-14.3948,-11.05,92,20,3.09,IS,1701693020
269,Ambovombe,-25.1667,46.0833,25.87,64,0,9.44,MG,1701693020
270,Zhangatas,43.5667,69.75,8.13,72,65,3.55,KZ,1701693021
271,Aasiaat,68.7098,-52.8699,-9.9,83,100,1.46,GL,1701693022
272,Chemodanovka,53.2316,45.2474,-5.09,82,100,6.26,RU,1701693023
273,Sauri,11.7266,6.7837,33.69,11,66,3.97,NG,1701693024
274,Bukittinggi,-0.3091,100.3706,20.06,96,96,0.24,ID,1701693026
275,Midvagur,62.0511,-7.1939,2.46,80,20,3.6,FO,1701693027
276,Naze,28.3667,129.4833,16.51,90,100,8.59,JP,1701693028
277,Alice Springs,-23.7,133.8833,26.75,29,0,2.06,AU,1701693028
278,Baracoa,20.3467,-74.4958,26.16,71,87,3.56,CU,1701693030
279,Banda Aceh,5.5577,95.3222,26.68,86,92,2.9,ID,1701693030
280,Nar'Yan-Mar,67.6713,53.087,-18.83,95,93,4.47,RU,1701693031
281,Galliano,29.4422,-90.2992,16.0,94,0,2.57,US,1701693032
282,Ust'-Barguzin,53.45,108.9833,-8.77,89,100,1.5,RU,1701692965
283,Sanming,26.2486,117.6186,13.78,97,99,1.08,CN,1701693034
284,Baglung,28.2719,83.5898,12.79,86,93,1.95,NP,1701693036
285,Znamenskoye,57.1281,73.8282,-18.51,89,100,0.96,RU,1701693037
286,Ducheng,23.2373,111.5317,14.98,85,100,1.03,CN,1701693039
287,Port Blair,11.6667,92.75,27.02,89,75,1.03,IN,1701693040
288,Zalingei,12.9096,23.4741,32.35,12,67,3.55,SD,1701693041
289,Kosong,38.3788,128.4676,6.27,62,3,4.42,KR,1701693042
290,Sechura,-5.5569,-80.8222,21.63,74,95,5.5,PE,1701693043
291,Olonkinbyen,70.9221,-8.7187,-0.63,73,100,4.62,SJ,1701693043
292,Kibakwe,-6.7167,36.3667,26.57,59,100,2.16,TZ,1701693044
293,Happy Valley-Goose Bay,53.3168,-60.3315,-13.83,72,100,3.09,CA,1701693015
294,Cooranbong,-33.0833,151.4333,20.33,81,97,0.91,AU,1701693046
295,Keflavik,64.0049,-22.5624,3.24,81,75,8.75,IS,1701693047
296,Cumbal,0.9088,-77.7915,6.06,93,40,0.0,CO,1701693048
297,Gramoteino,54.5368,86.3839,-14.73,87,100,5.46,RU,1701693049
298,Gulu,2.7746,32.299,29.0,46,100,1.26,UG,1701693050
299,Talcahuano,-36.7167,-73.1167,14.82,58,0,2.06,CL,1701693015
300,Galle,6.0367,80.217,26.04,87,100,3.82,LK,1701693052
301,Canchungo,12.0672,-16.0333,33.07,23,10,2.56,GW,1701693053
302,Veraval,20.9,70.3667,28.29,55,0,4.27,IN,1701693053
303,Jiuquan,39.7432,98.5174,1.75,27,0,1.49,CN,1701693054
304,Porrentruy,47.4153,7.0752,1.61,97,100,2.25,CH,1701693056
305,Vila Franca Do Campo,37.7167,-25.4333,18.27,99,100,2.69,PT,1701693056
306,Bairnsdale,-37.8333,147.6167,20.03,77,47,0.89,AU,1701692777
307,Ilukste,55.9775,26.2966,-6.2,96,99,2.07,LV,1701693059
308,Port Alfred,-33.5906,26.891,21.21,77,73,2.68,ZA,1701693059
309,Sao Joao De Pirabas,-0.7747,-47.1772,30.32,64,92,2.98,BR,1701693060
310,Crucecita,-28.95,-58.9833,17.93,85,100,5.6,AR,1701693061
311,Khash,28.2211,61.2158,15.66,22,4,3.75,IR,1701693063
312,Itaituba,-4.2761,-55.9836,26.09,94,75,0.0,BR,1701693065
313,Abeche,13.8292,20.8324,36.01,11,0,3.09,TD,1701693065
314,Uturoa,-16.7333,-151.4333,26.24,80,100,9.23,PF,1701693066
315,Juneau,58.3019,-134.4197,3.0,97,100,5.66,US,1701693067
316,Mossel Bay,-34.1831,22.146,21.96,62,9,7.75,ZA,1701693068
317,Maswa,-2.6833,33.9833,26.07,57,100,2.83,TZ,1701693069
318,Ribeira Brava,32.65,-17.0667,23.89,82,98,3.68,PT,1701693070
319,Berezovo,63.9381,65.0419,-25.47,95,100,2.51,RU,1701693071
320,Kerikeri,-35.2268,173.9474,19.39,92,100,1.83,NZ,1701693072
321,Kuhsan,34.6539,61.1978,16.53,21,0,2.23,AF,1701693073
322,Tazovsky,67.4667,78.7,-33.45,99,7,2.94,RU,1701693074
323,Broken Hill,-31.95,141.4333,29.89,18,0,4.39,AU,1701693075
324,Ouadda,8.0777,22.4007,33.06,22,100,1.34,CF,1701693076
325,Bardai,11.65,7.2333,33.05,11,100,4.24,NG,1701693077
326,Marsh Harbour,26.5412,-77.0636,25.03,81,97,4.51,BS,1701693023
327,Guerrero Negro,27.9769,-114.0611,16.38,61,2,2.17,MX,1701693033
328,Tupiza,-21.45,-65.7167,17.61,56,37,3.6,BO,1701693080
329,Altay,47.8667,88.1167,-10.78,84,28,2.98,CN,1701693080
330,Yarmouth,41.7057,-70.2286,7.76,95,75,7.15,US,1701693081
331,Kavieng,-2.5744,150.7967,27.8,81,100,3.6,PG,1701693082
332,Garden City,42.3256,-83.331,3.97,89,100,4.12,US,1701693080
333,Ajdabiya,30.7554,20.2263,21.03,63,34,8.16,LY,1701693084
334,Peace River,56.2501,-117.286,-3.52,100,0,1.03,CA,1701693085
335,Valparaiso,-33.0393,-71.6273,18.04,60,0,2.06,CL,1701693021
336,Port Mathurin,-19.6833,63.4167,26.23,79,2,5.19,MU,1701693086
337,Akrehamn,59.2667,5.1833,2.45,86,0,3.09,NO,1701693087
338,Gracemere,-23.4333,150.45,25.95,83,40,2.06,AU,1701693088
339,Andergrove,-21.0833,149.1833,26.47,86,16,1.99,AU,1701693089
340,Itoman,26.1247,127.6694,21.01,94,75,4.12,JP,1701693090
341,Howard Springs,-12.497,131.047,29.95,89,100,2.89,AU,1701693091
342,Metahara,8.9,39.9167,28.88,20,83,6.27,ET,1701693092
343,Angaur State,6.906,134.13,28.56,79,99,8.44,PW,1701693092
344,Kusa,55.3383,59.4406,-3.62,93,100,1.86,RU,1701693093
345,Mar Del Plata,-38.0023,-57.5575,15.53,58,20,1.79,AR,1701692874
346,Zeljezno Polje,44.4083,17.9319,3.73,37,42,1.31,BA,1701693096
347,Tubarjal,30.4999,38.216,25.61,26,9,4.59,SA,1701693097
348,Mahina,-17.5065,-149.489,25.87,73,20,1.03,PF,1701693098
349,El Granada,37.5027,-122.4694,12.97,92,75,0.0,US,1701693099
350,Songkhla,6.8333,100.6667,27.03,95,100,2.57,TH,1701693101
351,Whangarei,-35.7317,174.3239,16.87,99,100,1.51,NZ,1701692977
352,Al Jawf,29.5,38.75,26.02,23,3,4.77,SA,1701693103
353,Seal Beach,33.7414,-118.1048,17.46,87,0,0.0,US,1701693103
354,Birjand,32.8663,59.2211,19.26,9,0,4.12,IR,1701693104
355,Sur,22.5667,59.5289,25.75,61,0,5.3,OM,1701693105
356,Beloyarskiy,63.7119,66.6722,-30.56,99,100,0.45,RU,1701693107
357,Victoria,22.2855,114.1577,22.4,79,85,6.71,HK,1701692842
358,Paita,-5.0892,-81.1144,21.23,77,79,5.57,PE,1701693110
359,Champerico,14.3,-91.9167,23.3,80,0,2.07,GT,1701693111
360,Ravar,31.2656,56.8055,16.19,19,99,1.29,IR,1701693112
361,Lorengau,-2.0226,147.2712,26.92,80,16,1.28,PG,1701693114
362,Hotan,37.0997,79.9269,7.41,26,7,0.57,CN,1701693115
363,San Fernando,15.0286,120.6898,27.85,80,12,1.35,PH,1701693116
364,Belyye Vody,42.4167,69.8333,11.62,49,32,1.6,KZ,1701693118
365,Muborak,39.2553,65.1528,16.77,30,0,3.04,UZ,1701693118
366,Teno,-34.8667,-71.1833,13.75,67,0,3.6,CL,1701693119
367,Dryden,49.7833,-92.7503,-0.84,86,100,3.09,CA,1701693120
368,Point Pedro,9.8167,80.2333,27.13,85,100,7.68,LK,1701693121
369,Zaozersk,69.4005,32.4476,-8.02,94,100,2.54,RU,1701693122
370,Nova Sintra,14.8667,-24.7167,22.24,79,46,10.87,CV,1701693123
371,Lijiang,26.8688,100.2207,5.8,57,95,2.25,CN,1701693124
372,Kakonko,-3.2828,30.9642,23.48,79,100,1.61,TZ,1701693125
373,Vernon,50.2581,-119.2691,0.89,93,100,1.54,CA,1701693126
374,Buka,40.8108,69.1986,13.95,35,99,2.01,UZ,1701693127
375,Mutoko,-17.397,32.2268,32.25,16,5,2.08,ZW,1701693129
376,Langres,47.8333,5.3333,4.55,92,100,8.56,FR,1701693130
377,Recani,31.2846,-4.2688,19.12,32,0,4.2,MA,1701693131
378,Thinadhoo,0.5333,72.9333,28.33,73,100,1.63,MV,1701693132
379,College,64.8569,-147.8028,-18.08,71,40,0.0,US,1701693133
380,Khanty-Mansiysk,61.0042,69.0019,-26.61,69,0,2.0,RU,1701693134
381,Bologoye,57.8799,34.1068,-13.25,97,100,1.9,RU,1701693135
382,Anshun,26.25,105.9333,9.3,86,100,2.07,CN,1701693136
383,Kavaratti,10.5669,72.642,29.09,73,100,6.19,IN,1701693137
384,Poronaysk,49.2167,143.1167,-2.5,86,98,3.01,RU,1701693138
385,Shimoda,34.6667,138.95,10.88,63,31,0.59,JP,1701692918
386,Tinajo,29.0788,-13.7081,20.49,68,40,4.63,ES,1701693139
387,Antalaha,-14.9003,50.2788,27.76,67,80,7.22,MG,1701693140
388,Sao Gabriel,-30.3364,-54.32,17.65,85,100,6.1,BR,1701693141
389,Rabo De Peixe,37.8,-25.5833,17.77,99,40,4.47,PT,1701693142
390,La Descubierta,18.5705,-71.7297,25.35,76,19,1.39,DO,1701693144
391,Bei'An,24.5399,109.533,14.27,78,100,1.63,CN,1701693144
392,Saudarkrokur,65.7461,-19.6394,-3.97,68,52,2.94,IS,1701693145
393,Tarko-Sale,64.9225,77.785,-33.63,98,6,3.58,RU,1701693146
394,Tha Khanon,9.0302,98.9529,26.79,97,100,1.73,TH,1701693147
395,Veliki Preslav,43.1667,26.8167,2.35,63,14,2.57,BG,1701693148
396,La Paz,-16.5,-68.15,10.99,84,75,3.6,BO,1701693149
397,Tual,-5.6667,132.75,29.36,73,72,3.98,ID,1701693150
398,Mecca,21.4267,39.8261,32.07,18,0,1.92,SA,1701693151
399,Fryazevo,55.7319,38.4628,-6.18,92,100,4.18,RU,1701693152
400,Timbuktu,16.7735,-3.0074,32.06,8,6,4.91,ML,1701693153
401,Colby,39.3958,-101.0524,-6.97,73,0,3.6,US,1701693153
402,Greenville,35.6127,-77.3663,11.09,97,0,0.0,US,1701692721
403,Trondheim,63.4305,10.3951,-5.95,87,28,0.45,NO,1701692921
404,Nyurba,63.2842,118.3319,-47.81,100,69,1.66,RU,1701693156
405,Bude,50.8243,-4.5413,7.78,92,100,3.13,GB,1701693157
406,Las Lomitas,-24.7096,-60.593,20.51,97,100,2.96,AR,1701693158
407,Jogeva,58.7467,26.3939,-10.62,100,90,0.67,EE,1701693159
408,Porto De Moz,-1.7483,-52.2383,31.66,53,99,2.35,BR,1701693160
409,Mili,6.0815,171.735,28.16,80,56,8.23,MH,1701693161
410,Hammerfest,70.6634,23.6821,-4.75,93,40,1.03,NO,1701693161
411,Vechta,52.7167,8.2833,1.54,78,75,2.57,DE,1701693162
412,Zhangjiakou Shi Xuanhua Qu,40.6103,115.0447,0.58,35,0,0.31,CN,1701693163
413,Strezhevoy,60.7333,77.5889,-26.13,92,11,5.36,RU,1701693042
414,Bedarieux,43.6155,3.1571,11.81,77,100,2.52,FR,1701693164
415,Reggane,26.7158,0.1714,23.5,14,0,4.43,DZ,1701693165
416,Fale Old Settlement,-9.3852,-171.2468,28.81,76,56,7.15,TK,1701693166
417,Albina,5.5,-54.05,31.1,54,28,2.48,SR,1701693167
418,Dolinsk,47.35,142.8,4.29,84,100,7.53,RU,1701693168
419,Hasaki,35.7333,140.8333,2.22,44,1,1.12,JP,1701693168
420,Kogalym,62.2654,74.4791,-30.71,99,22,2.79,RU,1701693169
421,Mejit,10.2753,170.8646,27.32,76,100,8.71,MH,1701693170
422,Benguela,-12.5763,13.4055,27.65,69,100,3.31,AO,1701693171
423,Inhambane,-23.865,35.3833,29.99,51,40,4.12,MZ,1701693172
424,Usinsk,65.9939,57.5281,-19.4,99,48,4.47,RU,1701693172
425,Kirakira,-10.4544,161.9205,26.4,89,100,4.32,SB,1701693173
426,Ust'-Ilimsk,58.0006,102.6619,-3.09,94,100,5.81,RU,1701693038
427,Wahpeton,46.2652,-96.6059,-2.26,100,20,3.09,US,1701693175
428,Poso,-1.3959,120.7524,25.85,89,98,1.62,ID,1701693175
429,Gokak,16.1667,74.8333,28.41,57,99,4.13,IN,1701693176
430,Lishu,43.3047,124.3278,-5.87,91,5,1.86,CN,1701693177
431,Meadow Lake,34.8014,-106.5436,5.53,61,98,0.39,US,1701693178
432,Ghat,24.9647,10.1728,21.65,15,0,2.78,LY,1701693179
433,Miass,55.045,60.1083,-4.78,92,100,4.92,RU,1701692990
434,Nguigmi,14.2495,13.1092,32.04,16,100,4.64,NE,1701693180
435,Piti Village,13.4626,144.6933,28.49,85,0,4.12,GU,1701693181
436,Xining,36.6167,101.7667,0.88,34,0,0.68,CN,1701693183
437,Siemiatycze,52.4272,22.8623,-2.82,91,100,4.69,PL,1701693184
438,Laojunmiao,39.8333,97.7333,-0.46,30,0,1.51,CN,1701693185
439,Lower Sackville,44.7733,-63.6885,0.51,96,100,5.66,CA,1701693039
440,Kurumkan,54.3,110.3,-9.93,89,100,1.34,RU,1701693187
441,Sinjai,-5.1241,120.253,25.74,86,100,1.45,ID,1701693188
442,Arkhangel'Sk,64.5401,40.5433,-18.94,84,100,0.0,RU,1701692975
443,Tindouf,27.6711,-8.1474,22.25,26,7,3.09,DZ,1701693190
444,Mao,39.8885,4.2658,16.31,67,40,5.66,ES,1701693191
445,Wilhelmsburg,48.1057,15.6054,-1.97,85,100,0.6,AT,1701693191
446,Homer,59.6425,-151.5483,-0.07,80,75,2.57,US,1701693192
447,Lata,40.1629,-8.3327,15.45,74,90,3.29,PT,1701693193
448,Narayanpet,16.7333,77.5,22.34,80,100,6.48,IN,1701693195
449,Prestea,5.4327,-2.1428,35.26,39,0,1.3,GH,1701693196
450,Lagoa,39.05,-27.9833,15.25,56,99,4.96,PT,1701693197
451,Limulunga,-15.0969,23.1376,31.69,37,87,3.45,ZM,1701693198
452,Jiayuguan,39.8167,98.3,1.75,28,0,2.25,CN,1701692942
453,East London,-33.0153,27.9116,17.52,100,100,6.17,ZA,1701693020
454,Dunedin,-45.8742,170.5036,8.78,76,100,0.06,NZ,1701693200
455,Ghadamis,30.1337,9.5007,18.64,42,0,2.33,LY,1701693201
456,Lodja,-3.4833,23.4333,25.9,85,93,1.43,CD,1701693202
457,Zarah Sharan,33.1467,68.7917,5.43,34,0,0.62,AF,1701693203
458,Wenling,28.3669,121.36,11.84,91,99,3.16,CN,1701693204
459,Cill Airne,52.05,-9.5167,5.03,81,20,2.57,IE,1701693205
460,Sabha,27.0377,14.4283,20.87,39,0,5.0,LY,1701693206
461,Labasa,-16.4167,179.3833,25.35,91,58,2.61,FJ,1701693207
462,Salalah,17.0151,54.0924,32.05,23,20,8.75,OM,1701693208
463,Topolobampo,25.6,-109.05,16.48,67,0,3.04,MX,1701693209
464,Carnarvon,-24.8667,113.6333,23.98,78,4,11.52,AU,1701693210
465,Lisala,2.15,21.5167,22.63,94,100,1.36,CD,1701693211
466,Hengchun,22.0042,120.7439,24.88,79,50,2.23,TW,1701693211
467,Yanam,16.7333,82.2167,24.34,93,100,6.86,IN,1701693212
468,Moroni,-11.7022,43.2551,27.77,75,40,0.44,KM,1701693213
469,Gorontalo,0.5412,123.0595,25.41,94,58,1.04,ID,1701693214
470,Andovoranto,-18.95,49.1,26.27,58,6,4.23,MG,1701693215
471,Tinghir,31.5157,-5.5343,17.57,32,68,2.46,MA,1701692952
472,Wamba,8.9333,8.6,34.93,20,33,2.84,NG,1701693217
473,Kenora,49.8167,-94.4337,-1.46,86,100,2.06,CA,1701692983
474,Trujillo,-8.116,-79.03,18.98,88,100,2.06,PE,1701693067
475,Aketi,2.7388,23.7833,23.43,86,100,0.99,CD,1701693219
476,Remire-Montjoly,4.9167,-52.2667,30.02,70,75,6.69,GF,1701693221
477,Puerto San Jose,13.9256,-90.8244,24.74,79,5,2.12,GT,1701693222
478,Vershino-Darasunskiy,52.35,115.5167,-11.53,86,100,1.99,RU,1701693148
479,Mahajanga,-15.7167,46.3167,33.01,58,20,5.66,MG,1701693224
480,Gonabad,34.3529,58.6837,14.43,21,0,1.34,IR,1701693225
481,Skikda,36.8762,6.9092,18.56,40,99,3.67,DZ,1701693209
482,Changsu,35.6484,127.5152,2.19,61,100,0.2,KR,1701693226
483,Labrador City,52.9463,-66.9114,-14.05,78,100,3.09,CA,1701693010
484,Pagar Alam,-4.0167,103.2667,21.7,99,100,0.23,ID,1701693228
485,Hovd,48.0056,91.6419,-4.79,46,7,3.43,MN,1701693229
486,Fisterra,42.9049,-9.2629,13.34,60,8,8.47,ES,1701693229
487,Walvis Bay,-22.9575,14.5053,19.49,56,72,8.13,NA,1701693230
488,Malanje,-9.5402,16.341,24.95,62,100,1.52,AO,1701693231
489,Coronel Dorrego,-38.7187,-61.2873,18.9,23,0,4.34,AR,1701693232
490,Hadibu,12.65,54.0333,26.24,65,30,8.36,YE,1701693233
491,Emerald,-23.5333,148.1667,28.79,52,30,4.95,AU,1701693234
492,Fangshan,39.6983,115.9925,4.87,35,0,1.36,CN,1701693234
493,Murliganj,25.9,86.9833,23.58,45,87,2.46,IN,1701693235
494,Luderitz,-26.6481,15.1594,24.3,47,2,14.26,NA,1701693236
495,Cortina D'Ampezzo,46.5384,12.1377,-3.24,72,100,1.38,IT,1701693237
496,Sarangani,5.4033,125.4636,28.6,79,82,8.36,PH,1701693237
497,Idaho Falls,43.4666,-112.0341,3.31,88,100,6.69,US,1701693238
498,Dul'Durga,50.6761,113.5931,-11.53,92,100,1.55,RU,1701693239
499,Yukhnov,54.7444,35.2297,-8.68,98,48,1.75,RU,1701693240
500,San Patricio,28.017,-97.5169,14.92,49,100,3.29,US,1701693241
501,Goundam,16.4145,-3.6708,32.5,8,6,5.32,ML,1701693242
502,Colonia,50.9333,6.95,2.64,84,20,6.17,DE,1701692998
503,Belmonte,-15.8631,-38.8828,29.38,60,18,3.71,BR,1701693244
504,Acapulco De Juarez,16.8634,-99.8901,24.9,83,40,1.54,MX,1701693147
505,Sao Vicente,-23.9631,-46.3919,32.93,55,40,1.54,BR,1701693245
506,San Francisco,37.7749,-122.4194,12.36,93,75,0.89,US,1701693089
507,Psebay,44.1234,40.8107,12.04,67,83,2.33,RU,1701693247
508,Coquimbo,-29.9533,-71.3436,14.85,82,75,1.03,CL,1701693057
509,Ketchikan,55.3422,-131.6461,8.26,81,100,6.69,US,1701693249
510,Nemuro,43.3236,145.575,5.34,73,7,7.01,JP,1701693250
511,Mogocha,53.7333,119.7667,-12.36,95,100,1.24,RU,1701693251
512,Hirara,24.8,125.2833,20.15,94,100,5.14,JP,1701693237
513,Kralendijk,12.15,-68.2667,27.99,78,20,6.69,BQ,1701693102
514,Yampil',51.95,33.7833,-7.9,97,95,3.31,UA,1701693253
515,Khandyga,62.6667,135.6,-49.05,100,90,0.52,RU,1701693254
516,Bystrzyca Klodzka,50.3018,16.6423,-0.86,83,100,2.34,PL,1701693254
517,Morehead,37.2711,-87.1764,6.66,95,100,0.0,US,1701693255
518,Comodoro Rivadavia,-45.8667,-67.5,17.92,32,0,3.6,AR,1701693235
519,Nago,26.5881,127.9761,20.25,95,100,5.38,JP,1701693257
520,Grajau,-5.8194,-46.1386,30.29,61,100,1.42,BR,1701693258
521,Sandnessjoen,66.0217,12.6316,-4.77,80,75,2.57,NO,1701693259
522,Kem',64.9555,34.5793,-12.5,96,99,2.16,RU,1701693259
523,Taulaga,-11.0553,-171.0883,28.13,78,57,8.04,AS,1701693260
524,Bahia Blanca,-38.7196,-62.2724,21.01,19,0,2.68,AR,1701693261
525,Alofi,-19.0595,-169.9187,22.94,94,6,7.15,NU,1701693262
526,Tomatlan,19.9333,-105.25,24.08,60,100,1.96,MX,1701693263
527,Medvezh'Yegorsk,62.9167,34.4667,-20.32,100,90,0.8,RU,1701693264
528,Haiku-Pauwela,20.9219,-156.3051,23.91,81,0,5.14,US,1701693265
529,Tralee,52.2704,-9.7026,5.14,81,20,2.57,IE,1701693223
530,Konarka,19.9,86.1167,26.22,66,100,4.88,IN,1701693266
531,Nahiyat Saddat Al Hindiyah,32.7147,44.2803,23.12,24,10,3.21,IQ,1701693267
532,Porto Novo,6.4965,2.6036,31.9,42,0,3.31,BJ,1701693268
533,Muisne,0.6,-80.0333,25.35,84,100,2.94,EC,1701693269
534,Dwarka,22.2394,68.9678,26.06,44,0,8.33,IN,1701693270
535,Chenzhou,25.8,113.0333,9.91,95,99,0.31,CN,1701693271
536,Makakilo City,21.3469,-158.0858,23.16,88,0,0.0,US,1701693271
537,Majene,-3.5403,118.9707,26.26,86,82,1.76,ID,1701693272
538,Jebba,9.1333,4.8333,38.52,9,11,1.46,NG,1701693273
539,Iquique,-20.2208,-70.1431,20.02,65,1,2.29,CL,1701693239
540,Marka,1.7159,44.7717,29.95,64,94,6.75,SO,1701693275
541,Watertown,42.3709,-71.1828,5.23,93,100,4.12,US,1701693065
542,Ciudad Acuna,29.3232,-100.9522,7.16,81,0,2.06,MX,1701693193
543,Luchegorsk,46.4764,134.2569,-5.47,91,24,3.19,RU,1701693278
544,Kapuskasing,49.4169,-82.4331,-20.0,84,20,2.06,CA,1701693278
545,East End,34.5507,-92.341,8.96,66,0,4.31,US,1701693279
546,Sonoita,31.85,-112.8333,11.82,41,11,2.4,MX,1701693280
547,Saldanha,-33.0117,17.9442,24.03,62,1,7.53,ZA,1701693281
548,Villa Gesell,-37.2639,-56.973,16.7,52,0,1.13,AR,1701693282
549,Es Castell,39.8795,4.2854,16.38,67,40,5.66,ES,1701693282
550,Olovyannaya,50.95,115.5667,-9.76,84,100,5.43,RU,1701693283
551,Tiberias,32.7922,35.5312,28.72,32,0,1.94,IL,1701693284
552,Fiambala,-27.6871,-67.6149,16.7,49,0,2.83,AR,1701693285
553,Baruun-Urt,46.6806,113.2792,-7.27,76,28,8.29,MN,1701693286
554,Puerto Santa,-8.9906,-78.6456,19.34,87,87,2.87,PE,1701693286
555,Rio Gallegos,-51.6226,-69.2181,14.03,54,0,13.89,AR,1701693126
556,Okahao,-17.885,15.0667,30.79,38,98,2.64,NA,1701693288
557,Mil'Kovo,55.6078,37.7956,-6.27,92,100,4.77,RU,1701693289
558,Helena-West Helena,34.5291,-90.59,5.98,55,0,6.16,US,1701693290
559,Tavda,58.0425,65.2726,-16.28,74,100,2.68,RU,1701693290
560,Talara,-4.5772,-81.2719,22.42,78,0,6.17,PE,1701693291
561,Okha,53.5739,142.9478,-9.73,93,100,3.23,RU,1701693292
562,Huicungo,-7.2833,-76.8,24.66,88,100,0.38,PE,1701693293
563,Ubari,26.5921,12.7805,20.67,38,0,3.25,LY,1701693293
564,Cockburn Town,21.4612,-71.1419,25.93,79,52,2.35,TC,1701693294
565,Pudozh,61.8099,36.5345,-14.47,98,99,1.34,RU,1701693296
566,Novozybkov,52.5396,31.9275,-2.45,93,100,4.76,RU,1701693296
567,Faya-Largeau,17.9257,19.1043,32.59,7,51,5.62,TD,1701693297
568,Butterworth,5.3991,100.3638,29.02,81,20,4.12,MY,1701693298
569,Jaguarari,-10.2639,-40.1958,28.34,53,97,3.11,BR,1701693299
570,Nantucket,41.2835,-70.0995,8.08,94,100,7.2,US,1701693120
571,Tamiahua,21.2667,-97.45,19.46,82,100,1.3,MX,1701693300
572,Malvan,16.0667,73.4667,27.82,71,100,6.12,IN,1701693302
573,Lerwick,60.1545,-1.1494,5.0,72,81,3.15,GB,1701693303
574,Tosontsengel,48.7567,98.2839,-8.64,84,100,9.07,MN,1701693304
575,Khanbari,27.3747,87.2039,14.51,60,15,1.29,NP,1701693305
576,Wittingen,52.7269,10.7361,1.76,97,100,3.9,DE,1701693306
577,Fougamou,-1.2154,10.5838,25.11,95,100,0.56,GA,1701693307
578,Minas De Marcona,-15.2119,-75.1103,16.54,70,73,3.95,PE,1701693308
579,Tobruk,32.0836,23.9764,21.26,43,0,0.11,LY,1701693310
580,Guateque,5.0062,-73.4727,19.94,62,96,0.43,CO,1701693311
581,Cocorit,27.5833,-109.9667,15.19,21,0,2.22,MX,1701693312
